{"110TH STREET-8TH AVENUE": {"name": "Cathedral Pkwy (110 St)", "lines": "B,C", "lat": "40.800866", "line": "8th Avenue", "lng": "-73.958405"}, "2ND AVENUE-HOUSTON STREET": {"name": "2 Av", "lines": "F", "lat": "40.723950", "line": "6th Avenue", "lng": "-73.991298"}, "148TH STREET-LENOX AVENUE": {"name": "Harlem-148 St", "lines": "3", "lat": "40.824069", "line": "Lenox", "lng": "-73.936981"}, "KNICKERBOCKER AVE-MYRTLE AV": {"name": "Knickerbocker Av", "lines": "M", "lat": "40.698717", "line": "Myrtle Avenue", "lng": "-73.918655"}, "PELHAM PKWY-WHITE PLAINS RD": {"name": "Pelham Pkwy", "lines": "2,5", "lat": "40.858029", "line": "White Plains", "lng": "-73.867481"}, "CASTLE HILL AVENUE": {"name": "Castle Hill Av", "lines": "6", "lat": "40.834321", "line": "Pelham", "lng": "-73.851440"}, "RALPH AVENUE-FULTON STREET": {"name": "Ralph Av", "lines": "A,C", "lat": "40.678984", "line": "Fulton Street", "lng": "-73.921442"}, "BEDFORD PARK BLVD-203RD ST": {"name": "Bedford Park Blvd", "lines": "B,D", "lat": "40.874025", "line": "Concourse", "lng": "-73.886466"}, "VAN SICLEN AVENUE": {"name": "Van Siclen Av", "lines": "3", "lat": "40.665431", "line": "New Lots", "lng": "-73.888386"}, "ROCKAWAY AVE-HOPKINSON AVE": {"name": "Rockaway Av", "lines": "A,C", "lat": "40.678317", "line": "Fulton Street", "lng": "-73.913651"}, "14TH STREET-6TH AVENUE": {"name": "6 Av", "lines": "F,L,M,1,2,3", "lat": "40.737197", "line": "Canarsie", "lng": "-73.996704"}, "175TH STREET/FT WASHINGTON": {"name": "175 St", "lines": "A", "lat": "40.846407", "line": "8th Avenue", "lng": "-73.939861"}, "FRANKLIN AVENUE-FULTON ST": {"name": "Franklin Av", "lines": "C,FS", "lat": "40.681256", "line": "Fulton Street", "lng": "-73.955590"}, "125TH STREET-LENOX AVENUE": {"name": "125 St", "lines": "2,3", "lat": "40.807875", "line": "Lenox", "lng": "-73.945229"}, "ATLANTIC AV-VAN SINDEREN AV": {"name": "Atlantic Av", "lines": "L", "lat": "40.675380", "line": "Canarsie", "lng": "-73.902612"}, "BAY PARKWAY-66TH STREET": {"name": "Bay Pkwy", "lines": "N", "lat": "40.612989", "line": "Sea Beach", "lng": "-73.982084"}, "121ST STREET": {"name": "121 St", "lines": "J,Z", "lat": "40.700520", "line": "Jamaica", "lng": "-73.829231"}, "DITMARS BLVD & 31ST STREET": {"name": "Astoria-Ditmars Blvd", "lines": "N,Q", "lat": "40.775025", "line": "Astoria", "lng": "-73.911891"}, "72ND STREET & BROADWAY": {"name": "72 St", "lines": "1,2,3", "lat": "40.779146", "line": "7th Ave-Bway", "lng": "-73.981822"}, "DEKALB AVENUE": {"name": "DeKalb Av", "lines": "Q,R", "lat": "40.689817", "line": "4th Avenue", "lng": "-73.981082"}, "205TH ST-BAINBRIDGE AVE": {"name": "Norwood-205 St", "lines": "D", "lat": "40.874902", "line": "Concourse", "lng": "-73.879267"}, "INTERVALE 163RD STREET": {"name": "Intervale Av", "lines": "2,5", "lat": "40.822400", "line": "White Plains", "lng": "-73.896508"}, "NORWOOD AVENUE-FULTON ST": {"name": "Norwood Av", "lines": "J,Z", "lat": "40.681757", "line": "Jamaica", "lng": "-73.879007"}, "KOSCIUSZKO STREET-BROADWAY": {"name": "Kosciusko St", "lines": "J", "lat": "40.692929", "line": "Jamaica", "lng": "-73.927940"}, "EAST 143RD ST-SOUTHERN BLVD": {"name": "E 143 St-St Mary's St", "lines": "6", "lat": "40.808340", "line": "Pelham", "lng": "-73.907618"}, "47-50 STREETS/ROCKEFELLER": {"name": "47-50 Sts-Rockefeller Ctr", "lines": "B,D,F,M", "lat": "40.758615", "line": "6th Avenue", "lng": "-73.981095"}, "59TH STREET-4TH AVENUE": {"name": "59 St", "lines": "N,R", "lat": "40.641633", "line": "4th Avenue", "lng": "-74.017362"}, "SUTPHIN BOULEVARD": {"name": "Sutphin Blvd-Archer Av-JFK Airport", "lines": "E,J,Z", "lat": "40.700554", "line": "Archer Avenue", "lng": "-73.807353"}, "FT HAMILTON PKY-GREENWOOD": {"name": "Fort Hamilton Pkwy", "lines": "F,G", "lat": "40.651608", "line": "Prospect Park", "lng": "-73.975596"}, "VAN SICLEN AVENUE-FULTON ST": {"name": "Van Siclen Av", "lines": "J,Z", "lat": "40.677847", "line": "Jamaica", "lng": "-73.891711"}, "170TH STREET-JEROME AVENUE": {"name": "170 St", "lines": "4", "lat": "40.840076", "line": "Jerome", "lng": "-73.917648"}, "BROADWAY LAFAYETTE-BLEECKER": {"name": "B'way-Lafayette St", "lines": "B,D,F,M", "lat": "40.725499", "line": "6th Avenue", "lng": "-73.996387"}, "JACKSON AVENUE-VERNON BLVD": {"name": "Vernon Blvd-Jackson Av", "lines": "7", "lat": "40.742759", "line": "Flushing", "lng": "-73.953893"}, "CANAL STREET-BROADWAY": {"name": "Canal St", "lines": "J,N,Q,R,Z,6", "lat": "40.719498", "line": "Broadway", "lng": "-74.001606"}, "HOYT STREET-FULTON STREET": {"name": "Hoyt St", "lines": "2,3", "lat": "40.690433", "line": "Eastern Parkway", "lng": "-73.984323"}, "TREMONT AVE-179TH ST": {"name": "Tremont Av", "lines": "B,D", "lat": "40.851176", "line": "Concourse", "lng": "-73.904263"}, "CYPRESS HILLS": {"name": "Cypress Hills", "lines": "J", "lat": "40.690142", "line": "Jamaica", "lng": "-73.871630"}, "71ST AVE-CONTINENTAL AVE": {"name": "Forest Hills-71 Av", "lines": "E,F,M,R", "lat": "40.721490", "line": "Queens", "lng": "-73.843389"}, "96TH ST-CENTRAL PARK WEST": {"name": "96 St", "lines": "B,C", "lat": "40.791642", "line": "8th Avenue", "lng": "-73.965009"}, "63RD DRIVE-REGO PARK": {"name": "63 Dr-Rego Park", "lines": "M,R", "lat": "40.730037", "line": "Queens", "lng": "-73.861343"}, "SMITH STREET-9TH STREET": {"name": "Smith-9 Sts", "lines": "F,G", "lat": "40.674725", "line": "Prospect Park", "lng": "-73.997505"}, "JUNCTION BLVD-ROOSEVELT AVE": {"name": "Junction Blvd", "lines": "7", "lat": "40.749095", "line": "Flushing", "lng": "-73.869120"}, "176TH STREET-JEROME AVENUE": {"name": "176 St", "lines": "4", "lat": "40.848501", "line": "Jerome", "lng": "-73.911633"}, "HOYT ST-SCHERMERHORN ST": {"name": "Hoyt-Schermerhorn", "lines": "A,C,G", "lat": "40.688396", "line": "Fulton Street", "lng": "-73.984216"}, "116TH STREET-COLUMBIA": {"name": "116 St-Columbia University", "lines": "1", "lat": "40.808245", "line": "7th Ave-Bway", "lng": "-73.963495"}, "DYRE AVENUE-LIGHT STREET": {"name": "Eastchester-Dyre Av", "lines": "5", "lat": "40.887980", "line": "Dyre Avenue", "lng": "-73.831195"}, "SUTPHIN BLVD-HILLSIDE AVE": {"name": "Sutphin Blvd", "lines": "F", "lat": "40.705591", "line": "Queens", "lng": "-73.809481"}, "GRAND ARMY PLAZA": {"name": "Grand Army Plaza", "lines": "2,3", "lat": "40.675110", "line": "Eastern Parkway", "lng": "-73.970822"}, "MOSHOLU PARKWAY-JEROME AVE": {"name": "Mosholu Pkwy", "lines": "4", "lat": "40.879899", "line": "Jerome", "lng": "-73.884244"}, "DEKALB AVE-WYCKOFF AVE": {"name": "DeKalb Av", "lines": "L", "lat": "40.704379", "line": "Canarsie", "lng": "-73.919026"}, "75TH AVENUE-QUEENS BLVD": {"name": "75 Av", "lines": "E,F", "lat": "40.719061", "line": "Queens", "lng": "-73.837916"}, "138TH ST-GRAND CONCOURSE": {"name": "138 St-Grand Concourse", "lines": "4,5", "lat": "40.813091", "line": "Jerome", "lng": "-73.929689"}, "SUTTER AVENUE": {"name": "Sutter Av-Rutland Rd", "lines": "3", "lat": "40.664891", "line": "New Lots", "lng": "-73.922675"}, "8TH STREET & BROADWAY": {"name": "8 St-NYU", "lines": "N,R", "lat": "40.730578", "line": "Broadway", "lng": "-73.992216"}, "8TH AVENUE-62ND STREET": {"name": "8 Av", "lines": "N", "lat": "40.634552", "line": "Sea Beach", "lng": "-74.010726"}, "PARSONS BLVD & HILLSIDE AV": {"name": "Parsons Blvd", "lines": "F", "lat": "40.707563", "line": "Queens", "lng": "-73.802611"}, "163RD ST & AMSTERDAM AVE": {"name": "163 St-Amsterdam Av", "lines": "C", "lat": "40.835192", "line": "8th Avenue", "lng": "-73.940146"}, "168TH STREET & BROADWAY": {"name": "168 St", "lines": "A,C,1", "lat": "40.840717", "line": "7th Ave-Bway", "lng": "-73.939720"}, "ELDER AVE-WESTCHESTER AVE": {"name": "Elder Av", "lines": "6", "lat": "40.828688", "line": "Pelham", "lng": "-73.879018"}, "57TH STREET-6TH AVENUE": {"name": "57 St", "lines": "F", "lat": "40.764564", "line": "6th Avenue", "lng": "-73.976830"}, "CANAL STREET": {"name": "Canal St", "lines": "J,N,Q,R,Z,6", "lat": "40.718589", "line": "Lexington", "lng": "-74.000552"}, "HEWES STREET-BROADWAY": {"name": "Hewes St", "lines": "J,M", "lat": "40.707248", "line": "Jamaica", "lng": "-73.954326"}, "21ST STREET-QUEENSBRIDGE": {"name": "21 St-Queensbridge", "lines": "F", "lat": "40.754255", "line": "63rd Street", "lng": "-73.941935"}, "CLARK STREET-HENRY STREET": {"name": "Clark St", "lines": "2,3", "lat": "40.697649", "line": "Clark Street", "lng": "-73.993060"}, "CHURCH AVENUE": {"name": "Church Av", "lines": "B,Q", "lat": "40.649427", "line": "Brighton", "lng": "-73.963356"}, "BAYCHESTER AVE-TILLOTSON": {"name": "Baychester Av", "lines": "5", "lat": "40.879330", "line": "Dyre Avenue", "lng": "-73.837858"}, "125TH STREET & BROADWAY": {"name": "125 St", "lines": "1", "lat": "40.815230", "line": "7th Ave-Bway", "lng": "-73.958366"}, "42ND STREET & GRAND CENTRAL": {"name": "Grand Central-42 St", "lines": "GS,4,5,6,7", "lat": "40.751724", "line": "Lexington", "lng": "-73.976346"}, "18TH STREET-7TH AVENUE": {"name": "18 St", "lines": "1", "lat": "40.741617", "line": "7th Ave-Bway", "lng": "-73.997197"}, "PELHAM BAY PARK-BRUCKNER BL": {"name": "Pelham Bay Park", "lines": "6", "lat": "40.853041", "line": "Pelham", "lng": "-73.826991"}, "111TH STREET": {"name": "111 St", "lines": "J", "lat": "40.697055", "line": "Jamaica", "lng": "-73.837156"}, "MT EDEN AVENUE-JEROME AVE": {"name": "Mt Eden Av", "lines": "4", "lat": "40.844389", "line": "Jerome", "lng": "-73.914578"}, "18TH AVENUE-62ND STREET": {"name": "18 Av", "lines": "N", "lat": "40.620062", "line": "Sea Beach", "lng": "-73.989410"}, "CHAMBERS STREET": {"name": "Chambers St", "lines": "1,2,3", "lat": "40.715576", "line": "7th Ave-Bway", "lng": "-74.009031"}, "BOTANIC GARDEN-FRANKLIN AVE": {"name": "Botanic Garden", "lines": "FS,2,3,4,5", "lat": "40.670588", "line": "Franklin Shuttle", "lng": "-73.959093"}, "AVENUE U-WEST 7TH STREET": {"name": "Avenue U", "lines": "N", "lat": "40.596459", "line": "Sea Beach", "lng": "-73.978943"}, "SPRING STREET-LAFAYETTE ST": {"name": "Spring St", "lines": "6", "lat": "40.722235", "line": "Lexington", "lng": "-73.996818"}, "BURNSIDE AVE-JEROME AVE": {"name": "Burnside Av", "lines": "4", "lat": "40.853596", "line": "Jerome", "lng": "-73.907393"}, "NEW UTRECHT AVENUE-62ND ST": {"name": "New Utrecht Av", "lines": "D,N", "lat": "40.625606", "line": "Sea Beach", "lng": "-73.996830"}, "WHITEHALL STREET": {"name": "Whitehall St-South Ferry", "lines": "R,1", "lat": "40.701938", "line": "Broadway", "lng": "-74.012588"}, "219TH ST-WHITE PLAINS ROAD": {"name": "219 St", "lines": "2,5", "lat": "40.883439", "line": "White Plains", "lng": "-73.862743"}, "PROSPECT AVENUE-WESTCHESTER": {"name": "Prospect Av", "lines": "2,5", "lat": "40.819368", "line": "White Plains", "lng": "-73.901966"}, "SHEPHERD AVE-PITKIN AVE": {"name": "Shepherd Av", "lines": "A,C", "lat": "40.673970", "line": "Fulton Street", "lng": "-73.880667"}, "23RD STREET-6TH AVENUE": {"name": "23 St", "lines": "F,M", "lat": "40.742825", "line": "6th Avenue", "lng": "-73.992383"}, "40TH STREET-LOWERY STREET": {"name": "40 St-Lowery St", "lines": "7", "lat": "40.743882", "line": "Flushing", "lng": "-73.924112"}, "NEW LOTS AV-VAN SINDEREN AV": {"name": "New Lots Av", "lines": "L", "lat": "40.659041", "line": "Canarsie", "lng": "-73.899409"}, "AVENUE N-MCDONALD AVENUE": {"name": "Avenue N", "lines": "F", "lat": "40.614304", "line": "Culver", "lng": "-73.973910"}, "145TH STREET": {"name": "145 St", "lines": "A,B,C,D", "lat": "40.823791", "line": "8th Avenue", "lng": "-73.944726"}, "50TH STREET & 7TH AVENUE": {"name": "50 St", "lines": "1", "lat": "40.761212", "line": "7th Ave-Bway", "lng": "-73.983357"}, "KINGSBRIDGE RD-JEROME AVE": {"name": "Kingsbridge Rd", "lines": "4", "lat": "40.867766", "line": "Jerome", "lng": "-73.897039"}, "HIGH ST-CADMAN PLAZA WEST": {"name": "High St", "lines": "A,C", "lat": "40.699405", "line": "8th Avenue", "lng": "-73.991413"}, "HUDSON STREET-78TH STREET": {"name": "80 St", "lines": "A", "lat": "40.679361", "line": "Liberty Avenue", "lng": "-73.860284"}, "CITY HALL": {"name": "City Hall", "lines": "R", "lat": "40.713521", "line": "Broadway", "lng": "-74.006697"}, "61ST STREET-ROOSEVELT AVE": {"name": "Woodside-61 St", "lines": "7", "lat": "40.745717", "line": "Flushing", "lng": "-73.903063"}, "135TH STREET-ST NICHOLAS AV": {"name": "135 St", "lines": "B,C", "lat": "40.816892", "line": "8th Avenue", "lng": "-73.947818"}, "53RD STREET-4TH AVENUE": {"name": "53 St", "lines": "R", "lat": "40.645619", "line": "4th Avenue", "lng": "-74.013688"}, "25TH AVENUE-86TH STREET": {"name": "25 Av", "lines": "D", "lat": "40.597889", "line": "West End", "lng": "-73.986958"}, "238TH ST-WHITE PLAINS ROAD": {"name": "Nereid Av", "lines": "2,5", "lat": "40.898323", "line": "White Plains", "lng": "-73.854288"}, "FRANKLIN AVE/EASTERN PKWY": {"name": "Franklin Av", "lines": "FS,2,3,4,5", "lat": "40.670732", "line": "Eastern Parkway", "lng": "-73.957696"}, "36TH STREET-4TH AVENUE": {"name": "36 St", "lines": "N,R", "lat": "40.654365", "line": "4th Avenue", "lng": "-74.004113"}, "116TH STREET-LENOX AVENUE": {"name": "116 St", "lines": "2,3", "lat": "40.802111", "line": "Lenox", "lng": "-73.949437"}, "137TH STREET-BROADWAY": {"name": "137 St-City College", "lines": "1", "lat": "40.821454", "line": "7th Ave-Bway", "lng": "-73.953856"}, "34TH STREET & 6TH AVENUE": {"name": "34 St-Herald Sq", "lines": "B,D,F,M,N,Q,R", "lat": "40.749891", "line": "Broadway", "lng": "-73.987495"}, "181ST STREET-FT WASH AVE": {"name": "181 St", "lines": "A", "lat": "40.850752", "line": "8th Avenue", "lng": "-73.938130"}, "EAST 180TH ST-MORRIS PARK": {"name": "E 180 St", "lines": "2,5", "lat": "40.841453", "line": "White Plains", "lng": "-73.872892"}, "FIFTH AVENUE": {"name": "5 Av/53 St", "lines": "E,M", "lat": "40.760373", "line": "Queens", "lng": "-73.975562"}, "177TH STREET-PARKCHESTER": {"name": "Parkchester", "lines": "6", "lat": "40.833225", "line": "Pelham", "lng": "-73.860888"}, "GRANT AVENUE-PITKIN AVENUE": {"name": "Grant Av", "lines": "A", "lat": "40.676735", "line": "Liberty Avenue", "lng": "-73.865491"}, "EASTERN PARKWAY": {"name": "Eastern Pkwy-Brooklyn Museum", "lines": "2,3", "lat": "40.672122", "line": "Eastern Parkway", "lng": "-73.964154"}, "104TH STREET": {"name": "104 St", "lines": "J,Z", "lat": "40.695033", "line": "Jamaica", "lng": "-73.843298"}, "116TH STREET-8TH AVENUE": {"name": "116 St", "lines": "B,C", "lat": "40.804172", "line": "8th Avenue", "lng": "-73.955131"}, "PROSPECT AVE-4TH AVE": {"name": "Prospect Av", "lines": "R", "lat": "40.665299", "line": "4th Avenue", "lng": "-73.992729"}, "36TH AVENUE & 31ST STREET": {"name": "36 Av", "lines": "N,Q", "lat": "40.756796", "line": "Astoria", "lng": "-73.929740"}, "HALSEY STREET-WYCKOFF AVE": {"name": "Halsey St", "lines": "L", "lat": "40.695871", "line": "Canarsie", "lng": "-73.905143"}, "179TH STREET & HILLSIDE AVE": {"name": "Jamaica-179 St", "lines": "F", "lat": "40.712295", "line": "Queens", "lng": "-73.784280"}, "103RD STREET-LEXINGTON AVE": {"name": "103 St", "lines": "6", "lat": "40.790193", "line": "Lexington", "lng": "-73.947649"}, "ROCKAWAY PKWY-GLENWOOD RD": {"name": "Canarsie-Rockaway Pkwy", "lines": "L", "lat": "40.645560", "line": "Canarsie", "lng": "-73.902524"}, "ZEREGA AVE-WESTCHESTER AVE": {"name": "Zerega Av", "lines": "6", "lat": "40.836954", "line": "Pelham", "lng": "-73.846653"}, "HOUSTON STREET-VARICK ST": {"name": "Houston St", "lines": "1", "lat": "40.728656", "line": "7th Ave-Bway", "lng": "-74.005086"}, "FORDHAM ROAD & JEROME AVE": {"name": "Fordham Rd", "lines": "4", "lat": "40.862814", "line": "Jerome", "lng": "-73.900815"}, "FULTON STREET-LAFAYETTE AV": {"name": "Fulton St", "lines": "G", "lat": "40.687159", "line": "Crosstown", "lng": "-73.976290"}, "79TH STREET-BROADWAY": {"name": "79 St", "lines": "1", "lat": "40.783985", "line": "7th Ave-Bway", "lng": "-73.979662"}, "225TH STREET": {"name": "Marble Hill-225 St", "lines": "1", "lat": "40.874308", "line": "7th Ave-Bway", "lng": "-73.909795"}, "CANAL STREET-LISPENARD ST": {"name": "Canal St", "lines": "A,C,E", "lat": "40.720704", "line": "8th Avenue", "lng": "-74.004999"}, "85TH STREET & FOREST PKWAY": {"name": "85 St-Forest Pkwy", "lines": "J", "lat": "40.692381", "line": "Jamaica", "lng": "-73.858975"}, "BEDFORD AVENUE-NOSTRAND AVE": {"name": "Bedford-Nostrand Avs", "lines": "G", "lat": "40.689367", "line": "Crosstown", "lng": "-73.954957"}, "FIFTH AVENUE & 42ND STREET": {"name": "5 Av", "lines": "B,D,F,M,7", "lat": "40.753409", "line": "Flushing", "lng": "-73.981130"}, "MARCY AVENUE-BROADWAY": {"name": "Marcy Av", "lines": "J,M,Z", "lat": "40.708409", "line": "Jamaica", "lng": "-73.957689"}, "MAIN STREET": {"name": "Flushing-Main St", "lines": "7", "lat": "40.759946", "line": "Flushing", "lng": "-73.828414"}, "FIFTH AVENUE & 60TH STREET": {"name": "5th Av/59 St", "lines": "N,Q,R", "lat": "40.764657", "line": "Broadway", "lng": "-73.972229"}, "MYRTLE AVENUE-MARCY AVENUE": {"name": "Myrtle-Willoughby Avs", "lines": "G", "lat": "40.695500", "line": "Crosstown", "lng": "-73.948960"}, "PELHAM PKWY-ESPLANADE": {"name": "Pelham Pkwy", "lines": "5", "lat": "40.858804", "line": "Dyre Avenue", "lng": "-73.855515"}, "KINGS HIGHWAY-EAST 16TH ST": {"name": "Kings Hwy", "lines": "B,Q", "lat": "40.608780", "line": "Brighton", "lng": "-73.957925"}, "EAST 149TH ST-SOUTHERN BLVD": {"name": "E 149 St", "lines": "6", "lat": "40.812367", "line": "Pelham", "lng": "-73.903797"}, "STEINWAY ST-BROADWAY": {"name": "Steinway St", "lines": "M,R", "lat": "40.758279", "line": "Queens", "lng": "-73.919433"}, "PARK PLACE": {"name": "Park Place", "lines": "A,C,E,2,3", "lat": "40.712712", "line": "Clark Street", "lng": "-74.007766"}, "25TH STREET-4TH AVENUE": {"name": "25 St", "lines": "R", "lat": "40.660323", "line": "4th Avenue", "lng": "-73.997952"}, "145TH STREET-LENOX AVENUE": {"name": "145 St", "lines": "3", "lat": "40.820602", "line": "Lenox", "lng": "-73.935933"}, "23RD STREET-PARK AVE SOUTH": {"name": "23 St", "lines": "6", "lat": "40.740008", "line": "Lexington", "lng": "-73.986233"}, "36TH STREET-NORTHERN BLVD": {"name": "36 St", "lines": "M,R", "lat": "40.751930", "line": "Queens", "lng": "-73.927141"}, "145TH STREET-BROADWAY": {"name": "145 St", "lines": "1", "lat": "40.826513", "line": "7th Ave-Bway", "lng": "-73.950162"}, "BUSHWICK AVENUE-ABERDEEN ST": {"name": "Bushwick Av-Aberdeen St", "lines": "L", "lat": "40.682300", "line": "Canarsie", "lng": "-73.905149"}, "7TH AVENUE-PARK PLACE": {"name": "7 Av", "lines": "B,Q", "lat": "40.677324", "line": "Brighton", "lng": "-73.972212"}, "ASTOR PLACE-4 AVENUE": {"name": "Astor Pl", "lines": "6", "lat": "40.729968", "line": "Lexington", "lng": "-73.991410"}, "BEDFORD AVE-NORTH 7TH ST": {"name": "Bedford Av", "lines": "L", "lat": "40.717821", "line": "Canarsie", "lng": "-73.957568"}, "OCEAN PKWAY-BRIGHTON BCH AV": {"name": "Ocean Pkwy", "lines": "Q", "lat": "40.576234", "line": "Brighton", "lng": "-73.967561"}, "ROCKAWAY PARK-BEACH 116TH": {"name": "Rockaway Park-Beach 116 St", "lines": "H", "lat": "40.580510", "line": "Rockaway", "lng": "-73.837418"}, "110TH STREET-BROADWAY": {"name": "Cathedral Pkwy (110 St)", "lines": "1", "lat": "40.803926", "line": "7th Ave-Bway", "lng": "-73.966647"}, "LAFAYETTE AVENUE-FULTON ST": {"name": "Lafayette Av", "lines": "C", "lat": "40.685700", "line": "Fulton Street", "lng": "-73.973526"}, "NEWKIRK AVE-NOSTRAND AVE": {"name": "Newkirk Av", "lines": "2,5", "lat": "40.639924", "line": "Nostrand", "lng": "-73.948161"}, "KINGS HIGHWAY-MCDONALD AVE": {"name": "Kings Hwy", "lines": "F", "lat": "40.603999", "line": "Culver", "lng": "-73.972124"}, "JEFFERSON STREET-WYCKOFF AV": {"name": "Jefferson St", "lines": "L", "lat": "40.707229", "line": "Canarsie", "lng": "-73.923725"}, "STERLING ST-NOSTRAND AVE": {"name": "Sterling St", "lines": "2,5", "lat": "40.663226", "line": "Nostrand", "lng": "-73.950670"}, "79TH STREET-17TH AVENUE": {"name": "79 St", "lines": "D", "lat": "40.612847", "line": "West End", "lng": "-74.000721"}, "RECTOR STREET-CHURCH STREET": {"name": "Rector St", "lines": "R", "lat": "40.708028", "line": "Broadway", "lng": "-74.012696"}, "45TH ROAD-COURT HOUSE SQ": {"name": "Court Sq", "lines": "E,G,M,7", "lat": "40.746232", "line": "Flushing", "lng": "-73.945322"}, "MCDONALD AVE-22ND AVE": {"name": "Bay Pkwy", "lines": "F", "lat": "40.620825", "line": "Culver", "lng": "-73.975138"}, "CRESCENT STREET-FULTON ST": {"name": "Crescent St", "lines": "J,Z", "lat": "40.683478", "line": "Jamaica", "lng": "-73.872548"}, "RECTOR STREET-GREENWICH ST": {"name": "Rector St", "lines": "1", "lat": "40.708107", "line": "7th Ave-Bway", "lng": "-74.013445"}, "CYPRESS AVENUE-138TH STREET": {"name": "Cypress Av", "lines": "6", "lat": "40.805155", "line": "Pelham", "lng": "-73.913208"}, "20TH AVENUE-86TH STREET": {"name": "20 Av", "lines": "D", "lat": "40.604587", "line": "West End", "lng": "-73.998007"}, "MORRIS PARK-PAULDING AVENUE": {"name": "Morris Park", "lines": "5", "lat": "40.854544", "line": "Dyre Avenue", "lng": "-73.860248"}, "JACKSON AVENUE-WESTCHESTER": {"name": "Jackson Av", "lines": "2,5", "lat": "40.816873", "line": "White Plains", "lng": "-73.907379"}, "23RD STREET-7TH AVENUE": {"name": "23 St", "lines": "1", "lat": "40.744120", "line": "7th Ave-Bway", "lng": "-73.995348"}, "161ST STREET-YANKEE STADIUM": {"name": "161 St-Yankee Stadium", "lines": "B,D,4", "lat": "40.828011", "line": "Concourse", "lng": "-73.925588"}, "WILLETS PT BLVD-ROOSEVELT": {"name": "Mets-Willets Point", "lines": "7", "lat": "40.754768", "line": "Flushing", "lng": "-73.845598"}, "191ST STREET-ST NICHOLAS AV": {"name": "191 St", "lines": "1", "lat": "40.855374", "line": "7th Ave-Bway", "lng": "-73.929536"}, "NEW LOTS AVENUE": {"name": "New Lots Av", "lines": "3", "lat": "40.666285", "line": "New Lots", "lng": "-73.883276"}, "BLEECKER ST-LAFAYETTE ST": {"name": "Bleecker St", "lines": "6", "lat": "40.725845", "line": "Lexington", "lng": "-73.994320"}, "14TH STREET & 7TH AVENUE": {"name": "14 St", "lines": "F,L,M,1,2,3", "lat": "40.738585", "line": "7th Ave-Bway", "lng": "-73.999405"}, "116TH STREET-LEXINGTON AVE": {"name": "116 St", "lines": "6", "lat": "40.798742", "line": "Lexington", "lng": "-73.941406"}, "18TH AVENUE-86TH STREET": {"name": "18 Av", "lines": "D", "lat": "40.607897", "line": "West End", "lng": "-74.001628"}, "CENTRAL AVE-MYRTLE AVE": {"name": "Central Av", "lines": "M", "lat": "40.698033", "line": "Myrtle Avenue", "lng": "-73.926371"}, "181ST STREET-ST NICHOLAS AV": {"name": "181 St", "lines": "1", "lat": "40.849435", "line": "7th Ave-Bway", "lng": "-73.933428"}, "14TH STREET-UNION SQUARE": {"name": "14 St-Union Sq", "lines": "L,N,Q,R,4,5,6", "lat": "40.735184", "line": "Broadway", "lng": "-73.989793"}, "242ND STREET & BROADWAY": {"name": "Van Cortlandt Park-242 St", "lines": "1", "lat": "40.889946", "line": "7th Ave-Bway", "lng": "-73.897798"}, "ROOSEVELT ISLAND": {"name": "Roosevelt Island", "lines": "F", "lat": "40.759016", "line": "63rd Street", "lng": "-73.953505"}, "NEWKIRK AVE-EAST 16TH ST": {"name": "Newkirk Av", "lines": "B,Q", "lat": "40.635034", "line": "Brighton", "lng": "-73.962736"}, "1ST AVENUE-14TH STREET": {"name": "1 Av", "lines": "L", "lat": "40.731397", "line": "Canarsie", "lng": "-73.982112"}, "EAST TREMONT AVENUE-178 ST": {"name": "West Farms Sq-E Tremont Av", "lines": "2,5", "lat": "40.841078", "line": "White Plains", "lng": "-73.879397"}, "50TH STREET-8TH AVENUE": {"name": "50 St", "lines": "C,E", "lat": "40.762216", "line": "8th Avenue", "lng": "-73.985757"}, "BRIGHTON BEACH-CONEY ISLAND": {"name": "Brighton Beach", "lines": "B,Q", "lat": "40.577986", "line": "Brighton", "lng": "-73.960258"}, "82ND STREET-JACKSON HEIGHTS": {"name": "82 St-Jackson Hts", "lines": "7", "lat": "40.747812", "line": "Flushing", "lng": "-73.883876"}, "231ST STREET": {"name": "231 St", "lines": "1", "lat": "40.879091", "line": "7th Ave-Bway", "lng": "-73.904538"}, "ROOSEVELT AVE/JACKSON HTS": {"name": "Jackson Heights-Roosevelt Av", "lines": "E,F,M,R,7", "lat": "40.746527", "line": "Queens", "lng": "-73.891461"}, "170TH STREET-GRAND CONC.": {"name": "170 St", "lines": "B,D", "lat": "40.838991", "line": "Concourse", "lng": "-73.914037"}, "81ST STREET-MUSEUM": {"name": "81 St-Museum of Natural History", "lines": "B,C", "lat": "40.782254", "line": "8th Avenue", "lng": "-73.971741"}, "125TH STREET-LEXINGTON AVE": {"name": "125 St", "lines": "4,5,6", "lat": "40.804517", "line": "Lexington", "lng": "-73.937186"}, "GASTON AVENUE-BEACH 67TH ST": {"name": "Beach 67 St", "lines": "A", "lat": "40.590951", "line": "Far Rockaway", "lng": "-73.796176"}, "BOWLING GREEN & BATTERY PL": {"name": "Bowling Green", "lines": "4,5", "lat": "40.704659", "line": "Lexington", "lng": "-74.013920"}, "28TH STREET-PARK AVE SOUTH": {"name": "28 St", "lines": "6", "lat": "40.743257", "line": "Lexington", "lng": "-73.983738"}, "QUEENS PLAZA-JACKSON AVE": {"name": "Queens Plaza", "lines": "E,M,R", "lat": "40.748807", "line": "Queens", "lng": "-73.937057"}, "86TH STREET-AVENUE V": {"name": "86 St", "lines": "N", "lat": "40.592724", "line": "Sea Beach", "lng": "-73.978227"}, "LONGWOOD AVE-SOUTHERN BLVD": {"name": "Longwood Av", "lines": "6", "lat": "40.816367", "line": "Pelham", "lng": "-73.895924"}, "39TH AVENUE & 31ST STREET": {"name": "39 Av", "lines": "N,Q", "lat": "40.752901", "line": "Astoria", "lng": "-73.932903"}, "FRESH POND ROAD-68TH AVENUE": {"name": "Fresh Pond Rd", "lines": "M", "lat": "40.706115", "line": "Myrtle Avenue", "lng": "-73.895559"}, "34TH STREET - PENN STATION": {"name": "34 St-Penn Station", "lines": "A,C,E", "lat": "40.752766", "line": "8th Avenue", "lng": "-73.992596"}, "GRAND ST-BUSHWICK AVE": {"name": "Grand St", "lines": "L", "lat": "40.711912", "line": "Canarsie", "lng": "-73.940433"}, "UTICA AVENUE": {"name": "Crown Hts-Utica Av", "lines": "3,4", "lat": "40.668960", "line": "Eastern Parkway", "lng": "-73.931675"}, "BEVERLEY ROAD -EAST 15TH ST": {"name": "Beverly Rd", "lines": "B,Q", "lat": "40.644272", "line": "Brighton", "lng": "-73.964528"}, "AVENUE X-MCDONALD AVENUE": {"name": "Avenue X", "lines": "F", "lat": "40.590266", "line": "Culver", "lng": "-73.974051"}, "109TH STREET-LIBERTY AVENUE": {"name": "111 St", "lines": "A", "lat": "40.683972", "line": "Liberty Avenue", "lng": "-73.832816"}, "JUNIUS STREET": {"name": "Junius St", "lines": "3", "lat": "40.663426", "line": "New Lots", "lng": "-73.902636"}, "BOWERY STREET-DELANCEY ST": {"name": "Bowery", "lines": "J,Z", "lat": "40.720291", "line": "Nassau Loop", "lng": "-73.993411"}, "BOYD STREET-88TH STREET": {"name": "88 St", "lines": "A", "lat": "40.679828", "line": "Liberty Avenue", "lng": "-73.850401"}, "WINTHROP ST-NOSTRAND AVE": {"name": "Winthrop St", "lines": "2,5", "lat": "40.657184", "line": "Nostrand", "lng": "-73.949976"}, "PARK PLACE-FRANKLIN AVENUE": {"name": "Park Pl", "lines": "FS", "lat": "40.675208", "line": "Franklin Shuttle", "lng": "-73.957591"}, "ROCKAWAY AVENUE": {"name": "Rockaway Av", "lines": "3", "lat": "40.662401", "line": "New Lots", "lng": "-73.908809"}, "AVENUE H-EAST 16TH STREET": {"name": "Avenue H", "lines": "B,Q", "lat": "40.629930", "line": "Brighton", "lng": "-73.961477"}, "WESTCHESTER SQUARE": {"name": "Westchester Sq-East Tremont Av", "lines": "6", "lat": "40.840128", "line": "Pelham", "lng": "-73.842875"}, "AVENUE U-MCDONALD AVENUE": {"name": "Avenue U", "lines": "F", "lat": "40.596897", "line": "Culver", "lng": "-73.973137"}, "167TH ST-GRAND CONCOURSE": {"name": "167 St", "lines": "B,D", "lat": "40.834609", "line": "Concourse", "lng": "-73.917245"}, "103RD ST-CENTRAL PARK WEST": {"name": "103 St", "lines": "B,C", "lat": "40.796263", "line": "8th Avenue", "lng": "-73.961610"}, "NOSTRAND AVENUE": {"name": "Nostrand Av", "lines": "3", "lat": "40.669711", "line": "Eastern Parkway", "lng": "-73.950247"}, "ALLERTON AV-WHITE PLAINS RD": {"name": "Allerton Av", "lines": "2,5", "lat": "40.865257", "line": "White Plains", "lng": "-73.867246"}, "104TH STREET-LIBERTY AVENUE": {"name": "104 St", "lines": "A", "lat": "40.681994", "line": "Liberty Avenue", "lng": "-73.836742"}, "233RD ST-WHITE PLAINS ROAD": {"name": "233 St", "lines": "2,5", "lat": "40.893215", "line": "White Plains", "lng": "-73.857344"}, "GRAND ST-CHRISTIE ST": {"name": "Grand St", "lines": "B,D", "lat": "40.718155", "line": "6th Avenue", "lng": "-73.993452"}, "77TH STREET-LEXINGTON AVE": {"name": "77 St", "lines": "6", "lat": "40.773603", "line": "Lexington", "lng": "-73.959578"}, "63RD STREET-LEXINGTON AVE": {"name": "Lexington Av/63 St", "lines": "F", "lat": "40.764881", "line": "63rd Street", "lng": "-73.966411"}, "LORIMER STREET-BROADWAY": {"name": "Lorimer St", "lines": "J,M", "lat": "40.703454", "line": "Jamaica", "lng": "-73.946536"}, "NASSAU AVE-MANHATTAN AVE": {"name": "Nassau Av", "lines": "G", "lat": "40.723765", "line": "Crosstown", "lng": "-73.950566"}, "FLUSHING AVE-BROADWAY": {"name": "Flushing Av", "lines": "J,M", "lat": "40.700847", "line": "Jamaica", "lng": "-73.941710"}, "8TH AVENUE-14TH STREET": {"name": "8 Av", "lines": "A,C,E,L", "lat": "40.739550", "line": "Canarsie", "lng": "-74.002389"}, "NOSTRAND AVE-FULTON ST": {"name": "Nostrand Av", "lines": "A,C", "lat": "40.680228", "line": "Fulton Street", "lng": "-73.949414"}, "174TH-175TH ST-GRAND CONCOU": {"name": "174-175 Sts", "lines": "B,D", "lat": "40.846354", "line": "Concourse", "lng": "-73.909047"}, "AVENUE J-EAST 16TH STREET": {"name": "Avenue J", "lines": "B,Q", "lat": "40.625140", "line": "Brighton", "lng": "-73.960798"}, "CORTELYOU RD-EAST 16TH ST": {"name": "Cortelyou Rd", "lines": "B,Q", "lat": "40.641314", "line": "Brighton", "lng": "-73.963996"}, "103RD ST-ROOSEVELT AVE": {"name": "103 St-Corona Plaza", "lines": "7", "lat": "40.749787", "line": "Flushing", "lng": "-73.862389"}, "15TH ST-PROSPECT PARK WEST": {"name": "15 St-Prospect Park", "lines": "F,G", "lat": "40.660763", "line": "Prospect Park", "lng": "-73.978992"}, "BOWLING GREEN & BROADWAY": {"name": "Bowling Green", "lines": "4,5", "lat": "40.704629", "line": "Lexington", "lng": "-74.013502"}, "BROADWAY - UNION AVENUE": {"name": "Broadway", "lines": "G", "lat": "40.705114", "line": "Crosstown", "lng": "-73.950062"}, "CLASSON AVENUE-LAFAYETTE AV": {"name": "Classon Av", "lines": "G", "lat": "40.688781", "line": "Crosstown", "lng": "-73.959871"}, "BEACH 25TH STREET-WAVECREST": {"name": "Beach 25 St", "lines": "A", "lat": "40.599670", "line": "Far Rockaway", "lng": "-73.761596"}, "ATLANTIC AVENUE": {"name": "Atlantic Av", "lines": "B,D,N,Q,R,2,3,4,5", "lat": "40.684976", "line": "Eastern Parkway", "lng": "-73.977880"}, "174TH STREET-SOUTHERN BLVD": {"name": "174 St", "lines": "2,5", "lat": "40.837306", "line": "White Plains", "lng": "-73.887287"}, "NEPTUNE AVE-MCDONALD AVENUE": {"name": "Neptune Av", "lines": "F", "lat": "40.580576", "line": "Culver", "lng": "-73.974443"}, "21ST STREET-JACKSON AVENUE": {"name": "21 St", "lines": "G", "lat": "40.744552", "line": "Crosstown", "lng": "-73.948425"}, "FRANK AVENUE-BEACH 44TH ST": {"name": "Beach 44 St", "lines": "A", "lat": "40.592897", "line": "Far Rockaway", "lng": "-73.775715"}, "JAMAICA CENTER-PARSONS BLVD": {"name": "Jamaica Center-Parsons/Archer", "lines": "E,J,Z", "lat": "40.702353", "line": "Archer Avenue", "lng": "-73.799784"}, "FULTON & WILLIAM STREETS": {"name": "Fulton St", "lines": "A,C,J,Z,2,3,4,5", "lat": "40.709458", "line": "Clark Street", "lng": "-74.006139"}, "WEST 4TH ST-WASHINGTON SQ": {"name": "W 4 St-Wash Sq", "lines": "A,B,C,D,E,F,M", "lat": "40.733259", "line": "8th Avenue", "lng": "-73.999615"}, "BUHRE AVE-WESTCHESTER AVE": {"name": "Buhre Av", "lines": "6", "lat": "40.847185", "line": "Pelham", "lng": "-73.832264"}, "157TH STREET-BROADWAY": {"name": "157 St", "lines": "1", "lat": "40.833860", "line": "7th Ave-Bway", "lng": "-73.944620"}, "EUCLID AVE-PITKIN AVE": {"name": "Euclid Av", "lines": "A,C", "lat": "40.675533", "line": "Fulton Street", "lng": "-73.871742"}, "AVENUE P-MCDONALD AVENUE": {"name": "Avenue P", "lines": "F", "lat": "40.609041", "line": "Culver", "lng": "-73.972904"}, "190TH STREET-OVERLOOK TERR": {"name": "190 St", "lines": "A", "lat": "40.858899", "line": "8th Avenue", "lng": "-73.932702"}, "FORT HAMILTON PARKWAY-62ND": {"name": "Fort Hamilton Pkwy", "lines": "N", "lat": "40.632179", "line": "Sea Beach", "lng": "-74.006658"}, "UTICA AVE-STUYVESANT AVE": {"name": "Utica Av", "lines": "A,C", "lat": "40.679346", "line": "Fulton Street", "lng": "-73.931987"}, "DITMAS AVE-MCDONALD AVE": {"name": "Ditmas Av", "lines": "F", "lat": "40.635389", "line": "Culver", "lng": "-73.977914"}, "59TH STREET & LEXINGTON AVE": {"name": "59 St", "lines": "N,Q,R,4,5,6", "lat": "40.762069", "line": "Lexington", "lng": "-73.968016"}, "JAY ST-METROTECH": {"name": "Jay St-MetroTech", "lines": "A,C,F,R", "lat": "40.693491", "line": "Fulton Street", "lng": "-73.987089"}, "SPRING STREET-6TH AVENUE": {"name": "Spring St", "lines": "C,E", "lat": "40.725583", "line": "8th Avenue", "lng": "-74.003747"}, "34TH STREET & 7TH AVENUE": {"name": "34 St-Penn Station", "lines": "1,2,3", "lat": "40.751020", "line": "7th Ave-Bway", "lng": "-73.990323"}, "ASTORIA BLVD & 31ST STREET": {"name": "Astoria Blvd", "lines": "N,Q", "lat": "40.770870", "line": "Astoria", "lng": "-73.916935"}, "30TH AVENUE & 31ST STREET": {"name": "30 Av", "lines": "N,Q", "lat": "40.766963", "line": "Astoria", "lng": "-73.921192"}, "HUNTERS PT AVE-49TH AVE": {"name": "Hunters Point Av", "lines": "7", "lat": "40.742405", "line": "Flushing", "lng": "-73.948110"}, "65TH STREET-BROADWAY": {"name": "65 St", "lines": "M,R", "lat": "40.749330", "line": "Queens", "lng": "-73.897382"}, "18TH AVE-MCDONALD AVE": {"name": "18 Av", "lines": "F", "lat": "40.630562", "line": "Culver", "lng": "-73.976995"}, "CARROLL ST-PRESIDENT ST": {"name": "Carroll St", "lines": "F,G", "lat": "40.680944", "line": "Prospect Park", "lng": "-73.994247"}, "59TH STREET/COLUMBUS CIRCLE": {"name": "59 St-Columbus Circle", "lines": "A,B,C,D,1", "lat": "40.767642", "line": "7th Ave-Bway", "lng": "-73.981235"}, "51ST STREET & LEXINGTON AVE": {"name": "51 St", "lines": "E,M,6", "lat": "40.757059", "line": "Lexington", "lng": "-73.971570"}, "ST LAWRENCE AVE-WEST AVE": {"name": "St Lawrence Av", "lines": "6", "lat": "40.831466", "line": "Pelham", "lng": "-73.867410"}, "FOREST AVENUE-PUTNAM AVENUE": {"name": "Forest Av", "lines": "M", "lat": "40.704729", "line": "Myrtle Avenue", "lng": "-73.902243"}, "169TH STREET & HILLSIDE AVE": {"name": "169 St", "lines": "F", "lat": "40.710563", "line": "Queens", "lng": "-73.792853"}, "BAY RIDGE AVE-4TH AVENUE": {"name": "Bay Ridge Av", "lines": "R", "lat": "40.634768", "line": "4th Avenue", "lng": "-74.023339"}, "AVENUE I-MCDONALD AVENUE": {"name": "Avenue I", "lines": "F", "lat": "40.626163", "line": "Culver", "lng": "-73.976177"}, "7TH AVENUE-9TH STREET": {"name": "7 Av", "lines": "F,G", "lat": "40.667004", "line": "Prospect Park", "lng": "-73.981331"}, "VAN SICLEN AVE-PITKIN AVE": {"name": "Van Siclen Av", "lines": "A,C", "lat": "40.672479", "line": "Fulton Street", "lng": "-73.890164"}, "225TH ST-WHITE PLAINS ROAD": {"name": "225 St", "lines": "2,5", "lat": "40.887660", "line": "White Plains", "lng": "-73.860444"}, "HOLLAND-BEACH 90TH STREET": {"name": "Beach 90 St", "lines": "H", "lat": "40.587814", "line": "Rockaway", "lng": "-73.814037"}, "HOYT STREET-HOYT STREET": {"name": "Hoyt St", "lines": "2,3", "lat": "40.690388", "line": "Eastern Parkway", "lng": "-73.985299"}, "LIVONIA AVE-VAN SINDEREN AV": {"name": "Livonia Av", "lines": "L", "lat": "40.663749", "line": "Canarsie", "lng": "-73.900482"}, "42ND STREET & 6TH AVENUE": {"name": "42 St-Bryant Pk", "lines": "B,D,F,M,7", "lat": "40.754832", "line": "6th Avenue", "lng": "-73.983657"}, "MORGAN AVENUE-HARRISON PL": {"name": "Morgan Av", "lines": "L", "lat": "40.706317", "line": "Canarsie", "lng": "-73.931696"}, "WILSON AVENUE-MOFFAT STREET": {"name": "Wilson Av", "lines": "L", "lat": "40.688805", "line": "Canarsie", "lng": "-73.904741"}, "9TH AVENUE-39TH STREET": {"name": "9 Av", "lines": "D", "lat": "40.646337", "line": "West End", "lng": "-73.994489"}, "DYCKMAN STREET-BROADWAY": {"name": "Dyckman St", "lines": "A", "lat": "40.865342", "line": "8th Avenue", "lng": "-73.926964"}, "155TH STREET-ST NICHOLAS AV": {"name": "155 St", "lines": "C", "lat": "40.830921", "line": "8th Avenue", "lng": "-73.941100"}, "BOROUGH HALL - COURT STREET": {"name": "Borough Hall", "lines": "R,2,3,4,5", "lat": "40.693569", "line": "Clark Street", "lng": "-73.990599"}, "BERGEN STREET-SMITH STREET": {"name": "Bergen St", "lines": "F,G", "lat": "40.686727", "line": "Prospect Park", "lng": "-73.990269"}, "CLINTON AVENUE-FULTON ST": {"name": "Clinton-Washington Avs", "lines": "C", "lat": "40.683317", "line": "Fulton Street", "lng": "-73.966741"}, "103RD STREET-BROADWAY": {"name": "103 St", "lines": "1", "lat": "40.799223", "line": "7th Ave-Bway", "lng": "-73.968271"}, "FREEMAN ST-SOUTHERN BLVD": {"name": "Freeman St", "lines": "2,5", "lat": "40.830177", "line": "White Plains", "lng": "-73.891482"}, "238TH STREET-BROADWAY": {"name": "238 St", "lines": "1", "lat": "40.885226", "line": "7th Ave-Bway", "lng": "-73.900439"}, "ROCKAWAY BLVD-LIBERTY AVE": {"name": "Rockaway Blvd", "lines": "A", "lat": "40.680158", "line": "Liberty Avenue", "lng": "-73.845131"}, "VAN WYCK BLVD-METROPOLITAN": {"name": "Jamaica-Van Wyck", "lines": "E", "lat": "40.701263", "line": "Archer Avenue", "lng": "-73.816372"}, "69TH STREET-ROOSEVELT AVE": {"name": "69 St", "lines": "7", "lat": "40.746509", "line": "Flushing", "lng": "-73.896268"}, "MORRISON AVE & WESTCHESTER": {"name": "Morrison Av-Soundview", "lines": "6", "lat": "40.829641", "line": "Pelham", "lng": "-73.874447"}, "AQUEDUCT RACE TRACK": {"name": "Aqueduct Racetrack", "lines": "A", "lat": "40.672190", "line": "Rockaway", "lng": "-73.834446"}, "KINGSTON AVE-THROOP AVE": {"name": "Kingston-Throop Avs", "lines": "A,C", "lat": "40.679804", "line": "Fulton Street", "lng": "-73.941119"}, "SEVENTH AVENUE & WEST 53RD": {"name": "7 Av", "lines": "B,D,E", "lat": "40.762937", "line": "Queens", "lng": "-73.981578"}, "FORT HAMILTON PKWY-45TH ST": {"name": "Fort Hamilton Pkwy", "lines": "D", "lat": "40.640180", "line": "West End", "lng": "-73.994220"}, "CHAUNCEY STREET-ROCKAWAY AV": {"name": "Chauncey St", "lines": "J,Z", "lat": "40.683417", "line": "Jamaica", "lng": "-73.911242"}, "HALSEY STREET-BROADWAY": {"name": "Halsey St", "lines": "J", "lat": "40.685847", "line": "Jamaica", "lng": "-73.915807"}, "20TH AVENUE-62ND STREET": {"name": "20 Av", "lines": "N", "lat": "40.617341", "line": "Sea Beach", "lng": "-73.984840"}, "155TH STREET-8TH AVENUE": {"name": "155 St", "lines": "B,D", "lat": "40.830313", "line": "Concourse", "lng": "-73.936687"}, "28TH STREET & BROADWAY": {"name": "28 St", "lines": "N,R", "lat": "40.745089", "line": "Broadway", "lng": "-73.988472"}, "96TH STREET-LEXINGTON AVE": {"name": "96 St", "lines": "6", "lat": "40.785903", "line": "Lexington", "lng": "-73.950695"}, "55TH ST-NEW UTRECHT AVE": {"name": "55 St", "lines": "D", "lat": "40.631389", "line": "West End", "lng": "-73.995262"}, "UNION STREET-4TH AVENUE": {"name": "Union St", "lines": "R", "lat": "40.677171", "line": "4th Avenue", "lng": "-73.983020"}, "SIMPSON ST-WESTCHESTER AVE": {"name": "Simpson St", "lines": "2,5", "lat": "40.824358", "line": "White Plains", "lng": "-73.892724"}, "HUNTS PT AVE-SOUTHERN BLVD": {"name": "Hunts Point Av", "lines": "6", "lat": "40.820819", "line": "Pelham", "lng": "-73.890442"}, "BEDFORD PARK BLVD-JEROME AV": {"name": "Bedford Pk Blvd-Lehman College", "lines": "4", "lat": "40.873528", "line": "Jerome", "lng": "-73.889754"}, "BRONX PARK EAST": {"name": "Bronx Park East", "lines": "2,5", "lat": "40.849128", "line": "White Plains", "lng": "-73.868213"}, "SARATOGA AVENUE": {"name": "Saratoga Av", "lines": "3", "lat": "40.661558", "line": "New Lots", "lng": "-73.915225"}, "FRANKLIN STREET-WEST BWAY": {"name": "Franklin St", "lines": "1", "lat": "40.719001", "line": "7th Ave-Bway", "lng": "-74.006675"}, "SHEEPSHEAD BAY ROAD": {"name": "Sheepshead Bay", "lines": "B,Q", "lat": "40.587302", "line": "Brighton", "lng": "-73.954224"}, "LEFFERTS BLVD-LIBERTY AVE": {"name": "Ozone Park-Lefferts Blvd", "lines": "A", "lat": "40.686103", "line": "Liberty Avenue", "lng": "-73.824314"}, "PRINCE STREET & BROADWAY": {"name": "Prince St", "lines": "N,R", "lat": "40.724220", "line": "Broadway", "lng": "-73.997633"}, "YORK STREET-JAY STREET": {"name": "York St", "lines": "F", "lat": "40.701380", "line": "6th Avenue", "lng": "-73.986655"}, "77TH STREET-4TH AVENUE": {"name": "77 St", "lines": "R", "lat": "40.629503", "line": "4th Avenue", "lng": "-74.025452"}, "125TH STREET": {"name": "125 St", "lines": "A,B,C,D", "lat": "40.810879", "line": "8th Avenue", "lng": "-73.952318"}, "241ST ST-WHITE PLAINS RD": {"name": "Wakefield-241 St", "lines": "2,5", "lat": "40.903509", "line": "White Plains", "lng": "-73.850124"}, "207TH STREET-BROADWAY": {"name": "Inwood-207 St", "lines": "A", "lat": "40.867653", "line": "8th Avenue", "lng": "-73.920949"}, "75TH STREET & ELDERTS LANE": {"name": "75 St-Elderts Ln", "lines": "J,Z", "lat": "40.691285", "line": "Jamaica", "lng": "-73.866425"}, "GUN HILL ROAD-SEYMOUR": {"name": "Gun Hill Rd", "lines": "5", "lat": "40.870117", "line": "Dyre Avenue", "lng": "-73.845869"}, "GUNHILL RD-WHITE PLAINS RD": {"name": "Gun Hill Rd", "lines": "2,5", "lat": "40.877779", "line": "White Plains", "lng": "-73.866185"}, "CHRISTOPHER ST-SHERIDAN SQ": {"name": "Christopher St-Sheridan Sq", "lines": "1", "lat": "40.733402", "line": "7th Ave-Bway", "lng": "-74.002748"}, "4TH AVENUE-9TH STREET": {"name": "4 Av-9 St", "lines": "F,G,R", "lat": "40.670387", "line": "4th Avenue", "lng": "-73.988480"}, "NEVINS STREET": {"name": "Nevins St", "lines": "2,3,4,5", "lat": "40.688085", "line": "Eastern Parkway", "lng": "-73.980243"}, "BAY RIDGE - 95TH STREET": {"name": "95 St", "lines": "R", "lat": "40.616189", "line": "4th Avenue", "lng": "-74.031234"}, "PENNSYLVANIA AVENUE": {"name": "Pennsylvania Av", "lines": "3", "lat": "40.664869", "line": "New Lots", "lng": "-73.893779"}, "EAST 105TH ST-FARRAGUT ROAD": {"name": "East 105 St", "lines": "L", "lat": "40.651278", "line": "Canarsie", "lng": "-73.898862"}, "23RD STREET-ELY AVENUE": {"name": "Court Sq-23 St", "lines": "E,G,M,7", "lat": "40.747706", "line": "Queens", "lng": "-73.944626"}, "MIDDLETOWN ROAD-WESTCHESTER": {"name": "Middletown Rd", "lines": "6", "lat": "40.843935", "line": "Pelham", "lng": "-73.836386"}, "BROADWAY & 31ST STREET": {"name": "Broadway", "lines": "N,Q", "lat": "40.762217", "line": "Astoria", "lng": "-73.925349"}, "KINGSBRIDGE RD-196TH ST": {"name": "Kingsbridge Rd", "lines": "B,D", "lat": "40.867688", "line": "Concourse", "lng": "-73.892739"}, "50TH STREET-NEW UTRECHT AVE": {"name": "50 St", "lines": "D", "lat": "40.636139", "line": "West End", "lng": "-73.994702"}, "BAY 50TH STREET-STILLWELL": {"name": "Bay 50 St", "lines": "D", "lat": "40.588066", "line": "West End", "lng": "-73.983498"}, "WOODHAVEN BOULEVARD": {"name": "Woodhaven Blvd", "lines": "J,Z", "lat": "40.693451", "line": "Jamaica", "lng": "-73.852556"}, "149TH ST-GRAND CONCOURSE": {"name": "149 St-Grand Concourse", "lines": "2,4,5", "lat": "40.818405", "line": "Jerome", "lng": "-73.927101"}, "BROAD CHANNEL-NOEL ROAD": {"name": "Broad Channel", "lines": "A,H", "lat": "40.608007", "line": "Rockaway", "lng": "-73.815967"}, "23RD STREET & 8TH AVENUE": {"name": "23 St", "lines": "C,E", "lat": "40.746483", "line": "8th Avenue", "lng": "-73.997142"}, "HOWARD BEACH-159TH AVE": {"name": "Howard Beach-JFK Airport", "lines": "A", "lat": "40.660372", "line": "Rockaway", "lng": "-73.830369"}, "111TH STREET-LENOX AVENUE": {"name": "Central Park North (110 St)", "lines": "2,3", "lat": "40.799033", "line": "Lenox", "lng": "-73.952058"}, "AVENUE U-EAST 16TH STREET": {"name": "Avenue U", "lines": "B,Q", "lat": "40.598978", "line": "Brighton", "lng": "-73.956001"}, "111TH STREET-ROOSEVELT AVE": {"name": "111 St", "lines": "7", "lat": "40.751551", "line": "Flushing", "lng": "-73.855628"}, "BERGEN STREET": {"name": "Bergen St", "lines": "2,3", "lat": "40.680695", "line": "Eastern Parkway", "lng": "-73.974748"}, "183RD STREET-JEROME AVENUE": {"name": "183 St", "lines": "4", "lat": "40.858453", "line": "Jerome", "lng": "-73.903690"}, "UNION TURNPIKE-KEW GARDENS": {"name": "Kew Gardens-Union Tpke", "lines": "E,F", "lat": "40.714073", "line": "Queens", "lng": "-73.829917"}, "BROAD STREET & WALL STREET": {"name": "Broad St", "lines": "J,Z", "lat": "40.706911", "line": "Nassau Loop", "lng": "-74.010494"}, "METROPOLITAN AVENUE": {"name": "Middle Village-Metropolitan Av", "lines": "M", "lat": "40.712082", "line": "Myrtle Avenue", "lng": "-73.88954"}, "PRESIDENT ST-NOSTRAND AVE": {"name": "President St", "lines": "2,5", "lat": "40.668145", "line": "Nostrand", "lng": "-73.950458"}, "LEXINGTON AVENUE": {"name": "Lexington Av/53 St", "lines": "E,M,6", "lat": "40.757685", "line": "Queens", "lng": "-73.969125"}, "149TH STREET & 3RD AVENUE": {"name": "3 Av-149 St", "lines": "2,5", "lat": "40.816265", "line": "White Plains", "lng": "-73.917456"}, "CANAL ST-LAFAYETTE ST EAST": {"name": "Canal St", "lines": "J,N,Q,R,Z,6", "lat": "40.718304", "line": "Broadway", "lng": "-74.000138"}, "PROSPECT AVENUE-4TH AVENUE": {"name": "Prospect Av", "lines": "R", "lat": "40.665058", "line": "4th Avenue", "lng": "-73.993002"}, "WOODLAWN ROAD": {"name": "Woodlawn", "lines": "4", "lat": "40.886737", "line": "Jerome", "lng": "-73.878120"}, "215TH STREET": {"name": "215 St", "lines": "1", "lat": "40.869729", "line": "7th Ave-Bway", "lng": "-73.914954"}, "ESSEX ST-DELANCEY ST": {"name": "Delancey St-Essex St", "lines": "F,J,M,Z", "lat": "40.718841", "line": "6th Avenue", "lng": "-73.987902"}, "DYCKMAN STREET": {"name": "Dyckman St", "lines": "1", "lat": "40.861187", "line": "7th Ave-Bway", "lng": "-73.925078"}, "CANAL STREET-VARICK STREET": {"name": "Canal St", "lines": "1", "lat": "40.722497", "line": "7th Ave-Bway", "lng": "-74.005994"}, "KINGS HIGHWAY-WEST 7TH ST": {"name": "Kings Hwy", "lines": "N", "lat": "40.605107", "line": "Sea Beach", "lng": "-73.980578"}, "WOODHAVEN BLVD-QUEENS BLVD": {"name": "Woodhaven Blvd", "lines": "M,R", "lat": "40.733041", "line": "Queens", "lng": "-73.870334"}, "QUEENSBORO PLAZA": {"name": "Queensboro Plaza", "lines": "N,Q,7", "lat": "40.750835", "line": "Flushing", "lng": "-73.939671"}, "BURKE AVE-WHITE PLAINS ROAD": {"name": "Burke Av", "lines": "2,5", "lat": "40.871631", "line": "White Plains", "lng": "-73.867283"}, "STRAITON AVE-BEACH 60TH ST": {"name": "Beach 60 St", "lines": "A", "lat": "40.592478", "line": "Far Rockaway", "lng": "-73.789410"}, "33RD STREET-QUEENS BLVD": {"name": "33 St-Rawson St", "lines": "7", "lat": "40.744724", "line": "Flushing", "lng": "-73.931533"}, "GREENPOINT AVE": {"name": "Greenpoint Av", "lines": "G", "lat": "40.730122", "line": "Crosstown", "lng": "-73.954049"}, "CHURCH AVE-MCDONALD AVE": {"name": "Church Av", "lines": "F,G", "lat": "40.642692", "line": "Prospect Park", "lng": "-73.979260"}, "45TH STREET-4TH AVENUE": {"name": "45 St", "lines": "R", "lat": "40.649389", "line": "4th Avenue", "lng": "-74.009333"}, "49TH STREET & 7TH AVENUE": {"name": "49 St", "lines": "N,Q,R", "lat": "40.760454", "line": "Broadway", "lng": "-73.983388"}, "CHURCH AVENUE & NOSTRAND AV": {"name": "Church Av", "lines": "2,5", "lat": "40.650748", "line": "Nostrand", "lng": "-73.949384"}, "LAFAYETTE AV-WASHINGTON AV": {"name": "Clinton-Washington Avs", "lines": "G", "lat": "40.688157", "line": "Crosstown", "lng": "-73.965579"}, "CORTLANDT STREET": {"name": "Cortlandt St", "lines": "R", "lat": "40.710435", "line": "Broadway", "lng": "-74.011066"}, "MYRTLE AVENUE-BROADWAY": {"name": "Myrtle Av", "lines": "J,M,Z", "lat": "40.696893", "line": "Jamaica", "lng": "-73.935461"}, "42ND STREET & 8TH AVENUE": {"name": "42 St-Port Authority Bus Terminal", "lines": "A,C,E,N,Q,R,GS,1,2,3,7", "lat": "40.757286", "line": "8th Avenue", "lng": "-73.989582"}, "AVENUE M-EAST 16TH STREET": {"name": "Avenue M", "lines": "B,Q", "lat": "40.617928", "line": "Brighton", "lng": "-73.959454"}, "MOTT AVENUE-BEACH 22ND ST": {"name": "Far Rockaway-Mott Av", "lines": "A", "lat": "40.604657", "line": "Far Rockaway", "lng": "-73.754178"}, "PROSPECT PARK-EMPIRE BLVD": {"name": "Prospect Park", "lines": "B,Q,FS", "lat": "40.662727", "line": "Brighton", "lng": "-73.962249"}, "PARKSIDE AVE-OCEAN AVE": {"name": "Parkside Av", "lines": "B,Q", "lat": "40.655221", "line": "Brighton", "lng": "-73.961516"}, "MONTROSE AVENUE": {"name": "Montrose Av", "lines": "L", "lat": "40.707819", "line": "Canarsie", "lng": "-73.939749"}, "CLEVELAND STREET-FULTON ST": {"name": "Cleveland St", "lines": "J", "lat": "40.679656", "line": "Jamaica", "lng": "-73.885731"}, "138TH STREET-3RD AVE": {"name": "3 Av-138 St", "lines": "6", "lat": "40.810831", "line": "Pelham", "lng": "-73.926655"}, "ELMHURST AVE-BROADWAY": {"name": "Elmhurst Av", "lines": "M,R", "lat": "40.742066", "line": "Queens", "lng": "-73.881039"}, "90TH STREET/ELMHURST AVENUE": {"name": "90 St-Elmhurst Av", "lines": "7", "lat": "40.748318", "line": "Flushing", "lng": "-73.876432"}, "SEASIDE BEACH-105TH STREET": {"name": "Beach 105 St", "lines": "H", "lat": "40.583248", "line": "Rockaway", "lng": "-73.827163"}, "68TH STREET-HUNTER COLLEGE": {"name": "68 St-Hunter College", "lines": "6", "lat": "40.767863", "line": "Lexington", "lng": "-73.963898"}, "57TH STREET & 7TH AVENUE": {"name": "57 St-7 Av", "lines": "N,Q,R", "lat": "40.765639", "line": "Broadway", "lng": "-73.979764"}, "EDGEMERE-BEACH 36TH STREET": {"name": "Beach 36 St", "lines": "A", "lat": "40.595297", "line": "Far Rockaway", "lng": "-73.768206"}, "42ND STREET/TIMES SQUARE": {"name": "Times Sq-42 St", "lines": "A,C,E,N,Q,R,GS,1,2,3,7", "lat": "40.755575", "line": "7th Ave-Bway", "lng": "-73.986311"}, "86TH STREET-4TH AVENUE": {"name": "86 St", "lines": "R", "lat": "40.623498", "line": "4th Avenue", "lng": "-74.028204"}, "BROOK AVENUE-138TH STREET": {"name": "Brook Av", "lines": "6", "lat": "40.807580", "line": "Pelham", "lng": "-73.918957"}, "71ST STREET-NEW UTRECHT AVE": {"name": "71 St", "lines": "D", "lat": "40.618889", "line": "West End", "lng": "-73.998832"}, "72ND STREET-CENTRAL PK WEST": {"name": "72 St", "lines": "B,C", "lat": "40.776431", "line": "8th Avenue", "lng": "-73.975977"}, "110TH STREET-LEXINGTON AVE": {"name": "110 St", "lines": "6", "lat": "40.794682", "line": "Lexington", "lng": "-73.944319"}, "BAY PARKWAY-86TH STREET": {"name": "Bay Pkwy", "lines": "D", "lat": "40.601898", "line": "West End", "lng": "-73.993538"}, "86TH ST-CENTRAL PARK WEST": {"name": "86 St", "lines": "B,C", "lat": "40.785480", "line": "8th Avenue", "lng": "-73.969458"}, "46TH STREET-BROADWAY": {"name": "46 St", "lines": "M,R", "lat": "40.756868", "line": "Queens", "lng": "-73.914303"}, "WEST 6TH STREET-SURF AVENUE": {"name": "West 8 St-NY Aquarium", "lines": "F,Q", "lat": "40.575929", "line": "Coney Island", "lng": "-73.976747"}, "BEVERLY RD-NOSTRAND AVE": {"name": "Beverly Rd", "lines": "2,5", "lat": "40.645046", "line": "Nostrand", "lng": "-73.948684"}, "FORDHAM RD/GRAND CONCOURSE": {"name": "Fordham Rd", "lines": "B,D", "lat": "40.862608", "line": "Concourse", "lng": "-73.896662"}, "167TH STREET-RIVER AVENUE": {"name": "167 St", "lines": "4", "lat": "40.835726", "line": "Jerome", "lng": "-73.921059"}, "207TH STREET": {"name": "207 St", "lines": "1", "lat": "40.864599", "line": "7th Ave-Bway", "lng": "-73.918681"}, "33RD STREET-PARK AVENUE": {"name": "33 St", "lines": "6", "lat": "40.746550", "line": "Lexington", "lng": "-73.981533"}, "NORTHERN BLVD-BROADWAY": {"name": "Northern Blvd", "lines": "M,R", "lat": "40.753428", "line": "Queens", "lng": "-73.906847"}, "SENECA AVENUE-PALMETTO ST": {"name": "Seneca Av", "lines": "M", "lat": "40.702780", "line": "Myrtle Avenue", "lng": "-73.907515"}, "METROPOLITAN AVE-LORIMER ST": {"name": "Lorimer St", "lines": "G,L", "lat": "40.713908", "line": "Canarsie", "lng": "-73.949262"}, "GRAND AVE-QUEENS BOULEVARD": {"name": "Grand Av-Newtown", "lines": "M,R", "lat": "40.736277", "line": "Queens", "lng": "-73.876424"}, "3RD AVENUE-14TH STREET": {"name": "3 Av", "lines": "L", "lat": "40.733122", "line": "Canarsie", "lng": "-73.986548"}, "MYRTLE AVE-GATES AVENUE": {"name": "Myrtle-Wyckoff Avs", "lines": "L,M", "lat": "40.699814", "line": "Canarsie", "lng": "-73.911295"}, "NECK ROAD-EAST 16TH STREET": {"name": "Neck Rd", "lines": "B,Q", "lat": "40.595020", "line": "Brighton", "lng": "-73.955120"}, "LIBERTY AVE-PENNSYLVANIA AV": {"name": "Liberty Av", "lines": "A,C", "lat": "40.674268", "line": "Fulton Street", "lng": "-73.896312"}, "FULTON STREET": {"name": "Fulton St", "lines": "A,C,J,Z,2,3,4,5", "lat": "40.710166", "line": "Lexington", "lng": "-74.009424"}, "GATES AVENUE-BROADWAY": {"name": "Gates Av", "lines": "J,Z", "lat": "40.690142", "line": "Jamaica", "lng": "-73.923062"}, "96TH STREET-BROADWAY": {"name": "96 St", "lines": "1,2,3", "lat": "40.794312", "line": "7th Ave-Bway", "lng": "-73.972015"}, "PLAYLAND-BEACH 98TH STREET": {"name": "Beach 98 St", "lines": "H", "lat": "40.585342", "line": "Rockaway", "lng": "-73.820249"}, "STILLWELL AVE-CONEY ISLAND": {"name": "Coney Island-Stillwell Av", "lines": "D,F,N,Q", "lat": "40.576900", "line": "Coney Island", "lng": "-73.980846"}, "BROOKLYN BRIDGE": {"name": "Brooklyn Bridge-City Hall", "lines": "J,Z,4,5,6", "lat": "40.712286", "line": "Lexington", "lng": "-74.004371"}, "SUTTER AVE-VAN SINDEREN AVE": {"name": "Sutter Av", "lines": "L", "lat": "40.668527", "line": "Canarsie", "lng": "-73.901765"}, "FLATBUSH AVE & NOSTRAND AV": {"name": "Flatbush Av-Brooklyn College", "lines": "2,5", "lat": "40.632750", "line": "Nostrand", "lng": "-73.947375"}, "67TH AVENUE-QUEENS BLVD": {"name": "67 Av", "lines": "M,R", "lat": "40.727073", "line": "Queens", "lng": "-73.853226"}, "KINGSTON AVE/EASTERN PKWY": {"name": "Kingston Av", "lines": "3", "lat": "40.669261", "line": "Eastern Parkway", "lng": "-73.941948"}, "WHITLOCK AVE-WESTCHESTER AV": {"name": "Whitlock Av", "lines": "6", "lat": "40.827295", "line": "Pelham", "lng": "-73.886082"}, "ALABAMA AVENUE-FULTON ST": {"name": "Alabama Av", "lines": "J", "lat": "40.676803", "line": "Jamaica", "lng": "-73.899510"}, "EAST BROADWAY-MADISON ST": {"name": "East Broadway", "lines": "F", "lat": "40.713906", "line": "6th Avenue", "lng": "-73.990014"}, "28TH STREET-7TH AVENUE": {"name": "28 St", "lines": "1", "lat": "40.747216", "line": "7th Ave-Bway", "lng": "-73.993121"}, "GRAHAM AVE-METROPOLITAN AVE": {"name": "Graham Av", "lines": "L", "lat": "40.714439", "line": "Canarsie", "lng": "-73.944190"}, "FULTON ST & BROADWAY NASSAU": {"name": "Fulton St", "lines": "A,C,J,Z,2,3,4,5", "lat": "40.710211", "line": "Nassau Loop", "lng": "-74.007584"}, "46TH ST-BLISS ST": {"name": "46 St-Bliss St", "lines": "7", "lat": "40.743217", "line": "Flushing", "lng": "-73.918564"}, "WALL STREET": {"name": "Wall St", "lines": "4,5", "lat": "40.707577", "line": "Lexington", "lng": "-74.011731"}, "182ND STREET-183RD STREET": {"name": "182-183 Sts", "lines": "B,D", "lat": "40.856039", "line": "Concourse", "lng": "-73.900449"}, "42ND STREET & 3RD AVENUE": {"name": "Grand Central-42 St", "lines": "GS,4,5,6,7", "lat": "40.750851", "line": "Flushing", "lng": "-73.975078"}, "86TH STREET-BROADWAY": {"name": "86 St", "lines": "1", "lat": "40.788272", "line": "7th Ave-Bway", "lng": "-73.976083"}, "135TH STREET-LENOX AVENUE": {"name": "135 St", "lines": "2,3", "lat": "40.814188", "line": "Lenox", "lng": "-73.940618"}, "52ND STREET-ROOSEVELT AVE": {"name": "52 St", "lines": "7", "lat": "40.743933", "line": "Flushing", "lng": "-73.913003"}, "86TH STREET-LEXINGTON AVE": {"name": "86 St", "lines": "4,5,6", "lat": "40.779661", "line": "Lexington", "lng": "-73.955302"}, "NORTH CONDUIT AVE-COHANCEY": {"name": "Aqueduct-North Conduit Av", "lines": "A", "lat": "40.667018", "line": "Rockaway", "lng": "-73.833480"}, "VAN WYCK BLVD-MAIN STREET": {"name": "Briarwood-Van Wyck Blvd", "lines": "F", "lat": "40.709316", "line": "Queens", "lng": "-73.819773"}, "34TH STREET & 8TH AVENUE": {"name": "34 St-Penn Station", "lines": "A,C,E", "lat": "40.751996", "line": "8th Avenue", "lng": "-73.993327"}, "FLUSHING AVENUE-MARCY AVE": {"name": "Flushing Av", "lines": "G", "lat": "40.699985", "line": "Crosstown", "lng": "-73.949895"}, "23RD STREET & 5TH AVENUE": {"name": "23 St", "lines": "N,R", "lat": "40.741378", "line": "Broadway", "lng": "-73.988895"}, "66TH STREET-BROADWAY": {"name": "66 St-Lincoln Center", "lines": "1", "lat": "40.773457", "line": "7th Ave-Bway", "lng": "-73.982004"}}